{
  "metadata": {
    "version": "1.0",
    "lastUpdated": "2025-10-30",
    "totalHospitals": 20,
    "cities": ["Mumbai", "Delhi", "Bangalore", "Pune", "Chennai"]
  },
  "diseaseSpecializationMapping": {
    "Cholera": ["Infectious Diseases", "General Medicine", "Emergency Medicine"],
    "Typhoid": ["Gastroenterology", "General Physician", "Infectious Diseases"],
    "Hepatitis A": ["Hepatology", "Liver Specialist", "Gastroenterology"],
    "Giardiasis": ["Gastroenterology", "General Physician", "Pediatrics"],
    "Amoebiasis (Amoebic Dysentery)": ["Gastroenterology", "Infectious Diseases", "General Medicine"]
  },
  "hospitals": [
    {
      "id": "h001",
      "name": "Apollo Hospital",
      "type": "Multi-Specialty Hospital",
      "specializations": ["Infectious Diseases", "Gastroenterology", "General Medicine", "Emergency Medicine"],
      "address": "Sahar Road, Andheri East",
      "city": "Mumbai",
      "state": "Maharashtra",
      "pincode": "400069",
      "lat": 19.1136,
      "lon": 72.8697,
      "phone": "+91 22 6767 1000",
      "emergency": "+91 22 6767 1111",
      "rating": 4.5,
      "timings": "24/7",
      "services": ["Emergency", "ICU", "Pharmacy", "Lab"]
    },
    {
      "id": "h002",
      "name": "Lilavati Hospital",
      "type": "Multi-Specialty Hospital",
      "specializations": ["Hepatology", "Gastroenterology", "Liver Specialist", "General Medicine"],
      "address": "A-791, Bandra Reclamation",
      "city": "Mumbai",
      "state": "Maharashtra",
      "pincode": "400050",
      "lat": 19.0521,
      "lon": 72.8239,
      "phone": "+91 22 2640 5000",
      "emergency": "+91 22 2640 5555",
      "rating": 4.6,
      "timings": "24/7",
      "services": ["Emergency", "ICU", "Diagnostics", "Pharmacy"]
    },
    {
      "id": "h003",
      "name": "Fortis Hospital",
      "type": "Multi-Specialty Hospital",
      "specializations": ["Infectious Diseases", "General Physician", "Pediatrics", "Emergency Medicine"],
      "address": "Mulund Goregaon Link Road",
      "city": "Mumbai",
      "state": "Maharashtra",
      "pincode": "400078",
      "lat": 19.1708,
      "lon": 72.9633,
      "phone": "+91 22 6754 5000",
      "emergency": "+91 22 6754 5555",
      "rating": 4.3,
      "timings": "24/7",
      "services": ["Emergency", "Ambulance", "Pharmacy", "Lab"]
    },
    {
      "id": "h004",
      "name": "AIIMS Delhi",
      "type": "Government Hospital",
      "specializations": ["Infectious Diseases", "Gastroenterology", "Hepatology", "General Medicine", "Emergency Medicine"],
      "address": "Ansari Nagar",
      "city": "Delhi",
      "state": "Delhi",
      "pincode": "110029",
      "lat": 28.5672,
      "lon": 77.2100,
      "phone": "+91 11 2658 8500",
      "emergency": "+91 11 2658 8700",
      "rating": 4.7,
      "timings": "24/7",
      "services": ["Emergency", "ICU", "Research", "Lab"]
    },
    {
      "id": "h005",
      "name": "Max Super Speciality Hospital",
      "type": "Multi-Specialty Hospital",
      "specializations": ["Gastroenterology", "General Physician", "Infectious Diseases", "Pediatrics"],
      "address": "Press Enclave Road, Saket",
      "city": "Delhi",
      "state": "Delhi",
      "pincode": "110017",
      "lat": 28.5244,
      "lon": 77.2066,
      "phone": "+91 11 2651 5050",
      "emergency": "+91 11 2651 5000",
      "rating": 4.4,
      "timings": "24/7",
      "services": ["Emergency", "ICU", "Pharmacy", "Diagnostics"]
    },
    {
      "id": "h006",
      "name": "Manipal Hospital",
      "type": "Multi-Specialty Hospital",
      "specializations": ["Gastroenterology", "Hepatology", "General Medicine", "Infectious Diseases"],
      "address": "HAL Airport Road",
      "city": "Bangalore",
      "state": "Karnataka",
      "pincode": "560017",
      "lat": 12.9572,
      "lon": 77.6413,
      "phone": "+91 80 2502 4444",
      "emergency": "+91 80 2502 4445",
      "rating": 4.5,
      "timings": "24/7",
      "services": ["Emergency", "ICU", "Lab", "Pharmacy"]
    },
    {
      "id": "h007",
      "name": "Columbia Asia Hospital",
      "type": "Multi-Specialty Hospital",
      "specializations": ["General Physician", "Pediatrics", "Emergency Medicine", "Gastroenterology"],
      "address": "Kirloskar Business Park, Hebbal",
      "city": "Bangalore",
      "state": "Karnataka",
      "pincode": "560024",
      "lat": 13.0358,
      "lon": 77.5970,
      "phone": "+91 80 3988 0000",
      "emergency": "+91 80 3988 0001",
      "rating": 4.2,
      "timings": "24/7",
      "services": ["Emergency", "Ambulance", "Pharmacy", "Lab"]
    },
    {
      "id": "h008",
      "name": "Ruby Hall Clinic",
      "type": "Multi-Specialty Hospital",
      "specializations": ["Infectious Diseases", "Gastroenterology", "General Medicine", "Emergency Medicine"],
      "address": "40, Sassoon Road",
      "city": "Pune",
      "state": "Maharashtra",
      "pincode": "411001",
      "lat": 18.5204,
      "lon": 73.8567,
      "phone": "+91 20 6645 8888",
      "emergency": "+91 20 6645 8800",
      "rating": 4.4,
      "timings": "24/7",
      "services": ["Emergency", "ICU", "Diagnostics", "Pharmacy"]
    },
    {
      "id": "h009",
      "name": "Sahyadri Hospital",
      "type": "Multi-Specialty Hospital",
      "specializations": ["General Physician", "Gastroenterology", "Pediatrics", "Hepatology"],
      "address": "Naylor Road, Pune Camp",
      "city": "Pune",
      "state": "Maharashtra",
      "pincode": "411001",
      "lat": 18.5278,
      "lon": 73.8784,
      "phone": "+91 20 6767 6767",
      "emergency": "+91 20 6767 6700",
      "rating": 4.3,
      "timings": "24/7",
      "services": ["Emergency", "Lab", "Pharmacy", "Ambulance"]
    },
    {
      "id": "h010",
      "name": "Apollo Hospitals",
      "type": "Multi-Specialty Hospital",
      "specializations": ["Gastroenterology", "Hepatology", "Liver Specialist", "Infectious Diseases"],
      "address": "Greams Lane, Off Greams Road",
      "city": "Chennai",
      "state": "Tamil Nadu",
      "pincode": "600006",
      "lat": 13.0569,
      "lon": 80.2503,
      "phone": "+91 44 2829 3333",
      "emergency": "+91 44 2829 3344",
      "rating": 4.6,
      "timings": "24/7",
      "services": ["Emergency", "ICU", "Lab", "Pharmacy"]
    },
    {
      "id": "h011",
      "name": "MIOT International",
      "type": "Multi-Specialty Hospital",
      "specializations": ["General Medicine", "Gastroenterology", "Emergency Medicine", "Pediatrics"],
      "address": "4/112, Mount Poonamallee Road",
      "city": "Chennai",
      "state": "Tamil Nadu",
      "pincode": "600089",
      "lat": 13.0475,
      "lon": 80.2085,
      "phone": "+91 44 4200 2288",
      "emergency": "+91 44 4200 2289",
      "rating": 4.4,
      "timings": "24/7",
      "services": ["Emergency", "ICU", "Diagnostics", "Pharmacy"]
    },
    {
      "id": "h012",
      "name": "Kokilaben Dhirubhai Ambani Hospital",
      "type": "Multi-Specialty Hospital",
      "specializations": ["Infectious Diseases", "Hepatology", "Gastroenterology", "General Medicine"],
      "address": "Four Bungalows, Andheri West",
      "city": "Mumbai",
      "state": "Maharashtra",
      "pincode": "400053",
      "lat": 19.1368,
      "lon": 72.8260,
      "phone": "+91 22 3089 8888",
      "emergency": "+91 22 3089 8900",
      "rating": 4.7,
      "timings": "24/7",
      "services": ["Emergency", "ICU", "Lab", "Pharmacy", "Ambulance"]
    },
    {
      "id": "h013",
      "name": "City Health Clinic",
      "type": "Clinic",
      "specializations": ["General Physician", "Pediatrics"],
      "address": "MG Road, Near City Mall",
      "city": "Pune",
      "state": "Maharashtra",
      "pincode": "411001",
      "lat": 18.5196,
      "lon": 73.8553,
      "phone": "+91 20 2567 8901",
      "emergency": "+91 20 2567 8902",
      "rating": 4.0,
      "timings": "9 AM - 9 PM",
      "services": ["OPD", "Pharmacy", "Lab"]
    },
    {
      "id": "h014",
      "name": "HealthCare Plus Clinic",
      "type": "Clinic",
      "specializations": ["General Medicine", "Gastroenterology"],
      "address": "Indiranagar, 100 Feet Road",
      "city": "Bangalore",
      "state": "Karnataka",
      "pincode": "560038",
      "lat": 12.9716,
      "lon": 77.6412,
      "phone": "+91 80 4112 3456",
      "emergency": "+91 80 4112 3457",
      "rating": 3.9,
      "timings": "8 AM - 8 PM",
      "services": ["OPD", "Pharmacy"]
    },
    {
      "id": "h015",
      "name": "Sir Ganga Ram Hospital",
      "type": "Multi-Specialty Hospital",
      "specializations": ["Infectious Diseases", "Gastroenterology", "Hepatology", "General Medicine"],
      "address": "Rajinder Nagar",
      "city": "Delhi",
      "state": "Delhi",
      "pincode": "110060",
      "lat": 28.6389,
      "lon": 77.1833,
      "phone": "+91 11 2575 0000",
      "emergency": "+91 11 2575 0000",
      "rating": 4.5,
      "timings": "24/7",
      "services": ["Emergency", "ICU", "Lab", "Pharmacy"]
    },
    {
      "id": "h016",
      "name": "Medanta - The Medicity",
      "type": "Multi-Specialty Hospital",
      "specializations": ["Gastroenterology", "Hepatology", "Liver Specialist", "Infectious Diseases"],
      "address": "Sector 38, Gurgaon",
      "city": "Delhi",
      "state": "Haryana",
      "pincode": "122001",
      "lat": 28.4353,
      "lon": 77.0494,
      "phone": "+91 124 414 1414",
      "emergency": "+91 124 414 1515",
      "rating": 4.6,
      "timings": "24/7",
      "services": ["Emergency", "ICU", "Pharmacy", "Diagnostics"]
    },
    {
      "id": "h017",
      "name": "Narayana Health",
      "type": "Multi-Specialty Hospital",
      "specializations": ["General Medicine", "Pediatrics", "Gastroenterology", "Emergency Medicine"],
      "address": "258/A, Bommasandra",
      "city": "Bangalore",
      "state": "Karnataka",
      "pincode": "560099",
      "lat": 12.8064,
      "lon": 77.6816,
      "phone": "+91 80 7122 2222",
      "emergency": "+91 80 7122 2223",
      "rating": 4.4,
      "timings": "24/7",
      "services": ["Emergency", "ICU", "Ambulance", "Lab"]
    },
    {
      "id": "h018",
      "name": "Jehangir Hospital",
      "type": "Multi-Specialty Hospital",
      "specializations": ["Infectious Diseases", "General Physician", "Gastroenterology"],
      "address": "32, Sassoon Road",
      "city": "Pune",
      "state": "Maharashtra",
      "pincode": "411001",
      "lat": 18.5218,
      "lon": 73.8575,
      "phone": "+91 20 2605 5555",
      "emergency": "+91 20 2605 5556",
      "rating": 4.3,
      "timings": "24/7",
      "services": ["Emergency", "Lab", "Pharmacy"]
    },
    {
      "id": "h019",
      "name": "Kauvery Hospital",
      "type": "Multi-Specialty Hospital",
      "specializations": ["Gastroenterology", "General Medicine", "Emergency Medicine", "Pediatrics"],
      "address": "Alwarpet, TTK Road",
      "city": "Chennai",
      "state": "Tamil Nadu",
      "pincode": "600018",
      "lat": 13.0339,
      "lon": 80.2548,
      "phone": "+91 44 4000 6000",
      "emergency": "+91 44 4000 6001",
      "rating": 4.2,
      "timings": "24/7",
      "services": ["Emergency", "ICU", "Lab", "Pharmacy"]
    },
    {
      "id": "h020",
      "name": "Global Hospital",
      "type": "Multi-Specialty Hospital",
      "specializations": ["Hepatology", "Liver Specialist", "Gastroenterology", "Infectious Diseases"],
      "address": "Parel, Mumbai Central",
      "city": "Mumbai",
      "state": "Maharashtra",
      "pincode": "400012",
      "lat": 18.9987,
      "lon": 72.8332,
      "phone": "+91 22 6744 6444",
      "emergency": "+91 22 6744 6445",
      "rating": 4.5,
      "timings": "24/7",
      "services": ["Emergency", "ICU", "Lab", "Pharmacy", "Ambulance"]
    }
  ]
}
